var County =[
// {"code":"1","county":"黄浦区","lng":"121.478634","lat":"31.215559"},
// {"code":"2","county":"徐汇区","lng":"121.443871","lat":"31.195493"},
// {"code":"3","county":"长宁区","lng":"121.421042","lat":"31.222587"},
{"code":"4","county":"主城区","lng":"121.453735","lat":"31.234505"},
// {"code":"5","county":"普陀区","lng":"121.403414","lat":"31.256939"},
// {"code":"6","county":"虹口区","lng":"121.511136","lat":"31.270587"},
// {"code":"7","county":"杨浦区","lng":"121.532983","lat":"31.265895"},
{"code":"8","county":"闵行区","lng":"121.388967","lat":"31.11935"},
{"code":"9","county":"宝山区","lng":"121.456188","lat":"31.410486"},
{"code":"10","county":"嘉定区","lng":"121.272546","lat":"31.380402"},
{"code":"11","county":"浦东新区","lng":"121.754916","lat":"31.157906"},
{"code":"12","county":"金山区","lng":"121.348435","lat":"30.74764"},
{"code":"13","county":"松江区","lng":"121.232446","lat":"31.042402"},
{"code":"14","county":"青浦区","lng":"121.131404","lat":"31.156193"},
{"code":"15","county":"奉贤区","lng":"121.480378","lat":"30.923764"},
{"code":"16","county":"崇明区","lng":"121.495208","lat":"31.631132"},
]